City_ID,City,Lat,Lng,Max Temp,Humidity,Cloudiness,Wind Speed,Country,Date
0,bocana de paiwas,12.7857,-85.1227,25.24,91,100,4.42,NI,1722553963
1,chos malal,-37.3781,-70.2709,11.43,45,100,7.23,AR,1722553964
2,arica,-18.475,-70.3042,18.75,77,0,3.09,CL,1722553609
3,haiku-pauwela,20.9219,-156.3051,28.98,62,0,10.29,US,1722553966
4,gornozavodsk,58.3758,58.3211,12.43,98,99,1.04,RU,1722553968
5,port lincoln,-34.7333,135.8667,11.61,45,92,7.33,AU,1722553969
6,ushuaia,-54.8,-68.3,0.87,95,93,1.02,AR,1722553970
7,grytviken,-54.2811,-36.5092,-3.43,74,96,3.74,GS,1722553971
8,woolgoolga,-30.1106,153.2007,15.58,59,5,8.17,AU,1722553972
9,isafjordur,66.0755,-23.124,5.6,97,100,6.74,IS,1722553973
10,afaahiti,-17.75,-149.2833,24.93,63,17,5.62,PF,1722553975
11,sardinata,8.0829,-72.8007,31.82,60,100,1.7,CO,1722553976
12,chibougamau,49.9168,-74.3659,23.79,73,75,2.06,CA,1722553977
13,cockburn town,21.4612,-71.1419,28.98,79,100,6.17,TC,1722553978
14,port-aux-francais,-49.35,70.2167,4.72,93,100,17.05,TF,1722553979
15,ostersund,63.1792,14.6357,11.25,82,100,4.63,SE,1722553982
16,selfoss,63.9331,-20.9971,9.98,80,84,2.23,IS,1722553983
17,waitangi,-43.9535,-176.5597,8.23,80,58,3.13,NZ,1722553984
18,adamstown,-25.066,-130.1015,18.76,93,100,6.38,PN,1722553985
19,klyuchi,52.2667,79.1667,21.78,49,44,2.71,RU,1722553986
20,hammerfest,70.6634,23.6821,13.25,94,100,1.54,NO,1722553988
21,invercargill,-46.4,168.35,3.9,94,48,0.89,NZ,1722553989
22,talnakh,69.4865,88.3972,18.96,52,100,1.87,RU,1722553990
23,port mathurin,-19.6833,63.4167,22.28,77,5,4.55,MU,1722553991
24,bredasdorp,-34.5322,20.0403,8.06,90,25,2.34,ZA,1722553992
25,segezha,63.7415,34.3222,11.54,96,74,2.99,RU,1722553993
26,longyearbyen,78.2186,15.6401,11.91,76,0,0.0,SJ,1722553995
27,ziro,27.6333,93.8333,16.1,98,53,0.57,IN,1722553996
28,boone,39.0334,-92.3335,32.51,46,1,5.64,US,1722553997
29,carnarvon,-24.8667,113.6333,15.51,63,70,7.37,AU,1722553872
30,avarua,-21.2078,-159.775,23.03,53,100,2.06,CK,1722553999
31,olonkinbyen,70.9221,-8.7187,5.28,97,100,8.24,SJ,1722554000
32,praia da vitoria,38.7333,-27.0667,23.75,94,20,1.08,PT,1722554002
33,yellowknife,62.456,-114.3525,15.23,67,57,5.36,CA,1722553777
34,piacabucu,-10.4056,-36.4344,22.7,86,4,4.54,BR,1722554004
35,tofol,5.3248,163.0078,30.88,74,75,2.57,FM,1722554005
36,newman,37.3138,-121.0208,38.13,9,99,0.78,US,1722554006
37,ilulissat,69.2167,-51.1,3.01,93,100,1.03,GL,1722554008
38,bonthe,7.5264,-12.505,23.96,97,100,4.03,SL,1722554009
39,kaga bandoro,6.9896,19.1874,22.32,89,67,1.48,CF,1722554010
40,brotton,54.5689,-0.9365,17.02,89,44,3.41,GB,1722554011
41,palikir - national government center,6.9248,158.1611,31.41,66,75,2.57,FM,1722554012
42,alofi,-19.0595,-169.9187,24.94,65,75,5.66,NU,1722554013
43,anadyr,64.75,177.4833,6.28,86,75,9.83,RU,1722553746
44,hilo,19.7297,-155.09,27.85,72,75,3.13,US,1722554016
45,thompson,55.7435,-97.8558,23.09,46,40,9.26,CA,1722554017
46,nova vicosa,-17.8919,-39.3719,23.42,73,3,7.31,BR,1722554018
47,edinburgh of the seven seas,-37.0676,-12.3116,11.86,87,55,13.82,SH,1722554019
48,west island,-12.1568,96.8225,26.99,74,100,4.63,CC,1722554020
49,bethel,41.3712,-73.414,30.56,71,0,2.06,US,1722553899
50,wailua homesteads,22.0669,-159.378,27.44,66,0,4.63,US,1722554023
51,sao vicente,-23.9631,-46.3919,20.71,62,3,2.24,BR,1722553918
52,mejit,10.2753,170.8646,27.67,78,30,2.96,MH,1722554025
53,whitehorse,60.7161,-135.0538,16.68,59,75,3.09,CA,1722554026
54,coquimbo,-29.9533,-71.3436,13.85,85,100,6.69,CL,1722553899
55,tiksi,71.6872,128.8694,4.54,65,100,1.14,RU,1722554029
56,tamandare,-8.7597,-35.1047,24.12,75,0,5.91,BR,1722554030
57,general conesa,-40.1,-64.4333,16.1,60,100,4.6,AR,1722554031
58,jianshui,23.6363,102.8264,19.12,98,97,1.81,CN,1722554032
59,margaret river,-33.95,115.0667,11.29,60,99,1.12,AU,1722554033
60,san patricio,28.017,-97.5169,33.4,58,10,6.26,US,1722554034
61,arraial do cabo,-22.9661,-42.0278,21.75,73,2,8.09,BR,1722554036
62,puerto baquerizo moreno,-0.9,-89.6,20.15,84,31,5.27,EC,1722553623
63,port elizabeth,-33.918,25.5701,12.4,90,56,0.89,ZA,1722553867
64,kumagunnam,13.1551,10.6342,25.01,73,100,2.57,NG,1722554039
65,blackmans bay,-43.0167,147.3167,4.29,95,57,3.46,AU,1722554040
66,sumbe,-11.2061,13.8437,19.56,86,56,2.76,AO,1722554041
67,zhanaozen,43.3,52.8,23.96,38,4,3.15,KZ,1722554043
68,saint-pierre,-21.3393,55.4781,20.87,52,0,3.6,RE,1722554044
69,ust-nera,64.5667,143.2,4.87,93,99,3.33,RU,1722554045
70,jayapura,-2.5333,140.7,27.66,82,62,1.98,ID,1722554046
71,antofagasta,-23.65,-70.4,15.6,86,3,0.81,CL,1722553563
72,laborde,-33.1532,-62.8566,23.11,47,100,4.42,AR,1722554049
73,prineville,44.2999,-120.8345,39.71,18,0,4.63,US,1722554050
74,puerto natales,-51.7236,-72.4875,2.13,98,100,0.41,CL,1722554051
75,iqaluit,63.7506,-68.5145,5.85,65,75,3.6,CA,1722554052
76,nar'yan-mar,67.6713,53.087,14.28,97,63,4.33,RU,1722553796
77,iskateley,67.6803,53.1512,14.32,96,61,4.3,RU,1722554054
78,deqen,29.9618,90.7188,7.54,87,68,2.2,CN,1722554056
79,tegueste,28.5167,-16.3167,21.48,85,75,10.8,ES,1722554057
80,pacasmayo,-7.4006,-79.5714,18.08,82,16,5.98,PE,1722554059
81,nizhneudinsk,54.9076,99.0276,14.36,81,3,1.03,RU,1722554060
82,ilebo,-4.3167,20.5833,24.16,39,27,0.33,CD,1722554062
83,bikenibeu village,1.3673,173.1241,30.98,70,20,2.57,KI,1722554063
84,jamestown,42.097,-79.2353,28.34,73,0,4.63,US,1722554001
85,recreo,-29.2818,-65.061,20.47,44,100,4.34,AR,1722554066
86,papatowai,-46.5619,169.4708,7.83,70,91,1.17,NZ,1722554067
87,garissa,-0.4536,39.6401,22.9,76,52,8.09,KE,1722554069
88,hithadhoo,-0.6,73.0833,28.11,78,100,3.06,MV,1722554070
89,malvan,16.0667,73.4667,26.68,87,100,8.26,IN,1722554071
90,pontes e lacerda,-15.2261,-59.3353,26.92,30,1,1.09,BR,1722554001
91,yoloten,37.2989,62.3597,27.74,21,0,4.44,TM,1722554074
92,georgetown,5.4112,100.3354,27.75,74,20,1.54,MY,1722554076
93,taoudenni,22.6783,-3.9836,39.24,21,20,8.44,ML,1722554077
94,touros,-5.1989,-35.4608,23.76,76,3,6.44,BR,1722554078
95,lebu,-37.6167,-73.65,10.37,98,100,3.82,CL,1722554079
96,ushtobe,45.2514,77.9838,25.44,20,60,2.96,KZ,1722554080
97,manaure,11.7751,-72.4445,29.55,70,99,5.17,CO,1722554082
98,remire-montjoly,4.9167,-52.2667,26.02,89,0,1.03,GF,1722554083
99,beledweyne,4.7358,45.2036,23.86,66,93,8.96,SO,1722554084
100,dunedin,-45.8742,170.5036,8.78,75,63,1.79,NZ,1722554085
101,kone,-21.0595,164.8658,17.52,88,99,0.94,NC,1722554086
102,lambarene,-0.7001,10.2406,22.34,78,32,2.31,GA,1722554087
103,petropavlovsk-kamchatsky,53.0452,158.6483,20.33,78,75,3.0,RU,1722554089
104,hiratacho,35.4333,132.8167,30.01,79,20,0.51,JP,1722554090
105,kodiak,57.79,-152.4072,19.73,45,0,5.66,US,1722554091
106,college,64.8569,-147.8028,14.99,71,100,8.23,US,1722554015
107,kakonko,-3.2828,30.9642,18.51,41,67,1.05,TZ,1722554093
108,fisterra,42.9049,-9.2629,18.9,91,0,5.89,ES,1722554094
109,saldanha,-33.0117,17.9442,12.21,85,23,4.16,ZA,1722554096
110,santana,-0.0583,-51.1817,28.1,74,0,3.09,BR,1722554097
111,zalingei,12.9096,23.4741,22.15,87,100,2.77,SD,1722554098
112,aleksandrovsk-sakhalinskiy,50.8975,142.1561,17.99,89,100,4.26,RU,1722554099
113,goianesia,-15.3175,-49.1175,23.0,34,2,3.0,BR,1722554072
114,sao tome,0.3365,6.7273,23.13,81,94,4.57,ST,1722554104
115,derzhavinsk,51.1,66.3167,22.24,59,79,2.38,KZ,1722554106
116,gadzhiyevo,69.2551,33.3362,9.82,94,100,3.92,RU,1722554107
117,essaouira,31.5125,-9.77,23.72,78,1,5.14,MA,1722554108
118,nova sintra,14.8667,-24.7167,24.89,76,37,6.8,CV,1722554110
119,soe,-9.8607,124.284,18.74,78,64,2.46,ID,1722554111
120,sidon,33.5631,35.3689,28.93,73,0,1.41,LB,1722554112
121,shiguai,40.7058,110.2856,23.89,56,100,1.67,CN,1722554113
122,umea,63.8284,20.2597,14.96,88,100,4.63,SE,1722554114
123,mount isa,-20.7333,139.5,19.87,37,0,2.57,AU,1722554116
124,tazovsky,67.4667,78.7,14.8,87,73,3.36,RU,1722554117
125,kiunga,-6.1219,141.2906,22.73,99,100,1.21,PG,1722554118
126,ad darb,17.7229,42.2526,33.58,53,100,4.63,SA,1722554119
127,puerto ayora,-0.7393,-90.3518,25.98,82,70,3.95,EC,1722554120
128,laojunmiao,39.8333,97.7333,16.56,68,76,1.57,CN,1722554121
129,bubaque,11.2833,-15.8333,26.65,87,100,5.16,GW,1722554123
130,vrangel',42.7297,133.0839,22.83,92,93,0.76,RU,1722554124
131,fale old settlement,-9.3852,-171.2468,27.52,68,71,8.07,TK,1722554125
132,ballina,-28.8667,153.5667,14.88,64,15,5.31,AU,1722554126
133,la rinconada,37.4873,-5.9826,26.18,68,0,4.12,ES,1722554127
134,khandyga,62.6667,135.6,10.47,69,51,1.63,RU,1722554129
135,barranca,-10.75,-77.7667,17.2,83,11,3.55,PE,1722553873
136,juneau,58.3019,-134.4197,16.0,72,100,4.12,US,1722554088
137,cabo san lucas,22.8909,-109.9124,33.61,58,75,4.12,MX,1722554132
138,albany,42.6001,-73.9662,30.51,57,1,0.45,US,1722553691
139,stephenville,32.2207,-98.2023,38.42,20,0,4.63,US,1722554134
140,sitka,57.0531,-135.33,15.94,72,75,3.6,US,1722554136
141,saipan,15.1355,145.701,27.39,94,75,2.06,MP,1722554088
142,ribeira grande,38.5167,-28.7,23.21,89,34,2.24,PT,1722554138
143,neryungri,56.6709,124.6491,11.11,63,55,1.43,RU,1722554139
144,lazaro cardenas,17.9583,-102.2,29.62,69,99,4.06,MX,1722554140
145,hamilton,39.1834,-84.5333,31.35,70,100,4.63,US,1722553800
146,atafu village,-8.5421,-172.5159,27.83,74,85,8.72,TK,1722554143
147,pingliang,35.5392,106.6861,21.31,85,79,1.88,CN,1722554144
148,nikolayevsk-on-amure,53.1406,140.73,14.24,91,99,1.59,RU,1722554145
149,konstantinovsk,47.5828,41.0922,19.31,59,58,3.23,RU,1722554146
150,new norfolk,-42.7826,147.0587,7.62,83,50,1.01,AU,1722554147
151,gutierrez zamora,20.45,-97.0833,29.64,66,38,3.13,MX,1722554149
152,opuwo,-18.0607,13.84,16.2,30,0,1.13,NA,1722554150
153,luderitz,-26.6481,15.1594,13.56,47,0,5.74,NA,1722554151
154,geidam,12.897,11.9304,23.57,86,100,1.77,NG,1722554152
155,calverton,39.0576,-76.9358,34.29,58,50,2.06,US,1722554153
156,egilsstadir,65.2653,-14.3948,8.95,93,75,2.57,IS,1722554154
157,puerto lempira,15.2667,-83.7667,27.07,88,100,3.66,HN,1722554156
158,nagqu,31.5,92.0,3.19,80,84,1.62,CN,1722554157
159,kapa'a,22.0752,-159.319,28.18,66,0,4.63,US,1722554158
160,bambanglipuro,-7.95,110.2833,22.77,94,25,1.16,ID,1722554159
161,hasaki,35.7333,140.8333,29.05,82,6,3.66,JP,1722554160
162,lihue,21.9789,-159.3672,27.77,60,0,4.63,US,1722554162
163,keflavik,64.0049,-22.5624,10.24,87,75,3.09,IS,1722554131
164,pangody,65.85,74.4859,17.23,68,68,2.59,RU,1722554164
165,udachny,66.4167,112.4,12.15,51,0,2.23,RU,1722554166
166,ancud,-41.8697,-73.8203,9.29,90,100,11.41,CL,1722554168
167,hawaiian paradise park,19.5933,-154.9731,27.73,69,75,3.09,US,1722554169
168,rayachoti,14.05,78.75,26.1,64,100,6.88,IN,1722554171
169,bilibino,68.0546,166.4372,8.78,47,20,3.73,RU,1722554124
170,vicuna,-30.0319,-70.7081,9.85,56,100,2.25,CL,1722554141
171,constantia,44.1833,28.65,19.38,68,21,5.7,RO,1722554119
172,pedro juan caballero,-22.5472,-55.7333,27.38,27,44,4.82,PY,1722554176
173,cootamundra,-34.65,148.0333,6.64,73,6,3.48,AU,1722554177
174,laguna,38.421,-121.4238,40.08,22,0,0.45,US,1722554179
175,vadso,70.0744,29.7487,14.09,94,75,3.6,NO,1722554180
176,ambalangoda,6.2355,80.0538,26.42,86,100,5.03,LK,1722554182
177,cidreira,-30.1811,-50.2056,16.29,90,1,8.15,BR,1722554183
178,susuman,62.7833,148.1667,3.54,76,99,2.33,RU,1722554184
179,marietta,33.9526,-84.5499,33.26,69,75,2.06,US,1722554185
180,klaksvik,62.2266,-6.589,12.51,99,100,9.23,FO,1722554186
181,sabang,5.8933,95.3214,28.52,75,100,3.51,ID,1722554188
182,lexington,37.9887,-84.4777,31.94,67,38,6.72,US,1722553761
183,missoula,47.0166,-113.8009,31.15,22,0,1.71,US,1722554190
184,aasiaat,68.7098,-52.8699,3.85,84,14,2.72,GL,1722554191
185,kidal,18.4411,1.4078,33.55,38,69,3.41,ML,1722554192
186,antsiranana,-12.2787,49.2917,21.79,73,5,6.65,MG,1722554193
187,calvinia,-31.4707,19.776,6.91,33,0,1.85,ZA,1722554195
188,kihangara,-2.5833,33.35,20.68,52,4,2.5,TZ,1722554196
189,utrik,11.2278,169.8474,28.35,77,49,2.86,MH,1722554197
190,port alfred,-33.5906,26.891,12.88,92,67,0.89,ZA,1722554198
191,abomsa,9.9833,39.9833,21.02,76,68,1.46,ET,1722554199
192,hue,16.4667,107.6,29.06,70,40,1.54,VN,1722554200
193,likasi,-10.9814,26.7333,14.09,31,0,1.77,CD,1722554203
194,tromso,69.6496,18.957,14.01,88,75,3.09,NO,1722554204
195,brookings,44.3114,-96.7984,28.43,59,0,5.66,US,1722554205
196,n'zeto,-7.2312,12.8666,19.44,86,45,2.47,AO,1722554206
197,taunggyi,20.7833,97.0333,18.5,98,100,2.12,MM,1722554207
198,viedma,-40.8135,-62.9967,14.88,75,100,4.28,AR,1722554209
199,st. john's,47.5649,-52.7093,22.93,87,75,9.77,CA,1722554102
200,veraval,20.9,70.3667,27.48,84,100,9.89,IN,1722554211
201,labrador city,52.9463,-66.9114,20.95,52,40,2.57,CA,1722554212
202,penonome,8.5167,-80.3667,23.89,97,100,0.45,PA,1722554107
203,igarka,67.4667,86.5833,15.22,80,100,3.06,RU,1722554214
204,ban karon,7.8477,98.2985,30.44,88,100,1.73,TH,1722554216
205,gornyy,55.1153,83.9059,16.5,91,86,1.93,RU,1722554217
206,stanley,54.868,-1.6985,16.4,91,92,0.71,GB,1722554218
207,belmonte,-15.8631,-38.8828,22.64,82,4,3.11,BR,1722554219
208,hassi messaoud,31.6804,6.0729,32.92,18,0,0.51,DZ,1722554220
209,fort st. john,56.2499,-120.8529,22.94,31,75,7.2,CA,1722554222
210,san clemente del tuyu,-36.3569,-56.7235,14.39,87,98,6.11,AR,1722554161
211,murehwa,-17.6432,31.784,9.29,83,1,2.04,ZW,1722554224
212,portage la prairie,49.9728,-98.2926,31.17,43,0,4.96,CA,1722554226
213,hohhot,40.8106,111.6522,21.16,83,0,3.0,CN,1722554228
214,codrington,-38.2667,141.9667,8.07,65,51,7.04,AU,1722554229
215,santo antonio do ica,-3.1022,-67.9397,25.94,73,33,0.57,BR,1722554230
216,skeldon,5.8833,-57.1333,25.44,83,18,2.18,GY,1722554231
217,tolanaro,-25.0319,46.9987,17.16,75,4,2.82,MG,1722554232
218,orito,0.6766,-76.8771,23.96,82,76,0.83,CO,1722554233
219,sinabang,2.4803,96.3801,26.48,81,99,1.39,ID,1722554235
220,porbandar,21.6422,69.6093,27.48,85,100,10.51,IN,1722554083
221,avanos,38.715,34.8467,21.07,61,0,1.4,TR,1722554237
222,tacna,-18.0056,-70.2483,15.11,72,0,0.51,PE,1722554024
223,dudinka,69.4058,86.1778,16.11,56,100,2.7,RU,1722554239
224,kharp,66.8014,65.8081,15.37,94,63,2.92,RU,1722554241
225,biltine,14.5333,20.9167,23.77,88,92,4.31,TD,1722554242
226,luzilandia,-3.4578,-42.3703,24.02,76,9,3.25,BR,1722554243
227,sibiti,-3.6819,13.3499,19.58,67,31,1.63,CG,1722554244
228,tazacorte,28.629,-17.9293,22.54,92,0,7.2,ES,1722554245
229,katabu,-4.9333,122.5167,24.77,78,68,2.11,ID,1722554246
230,motueka,-41.1333,173.0167,8.94,54,5,1.97,NZ,1722554248
231,aral,40.5156,81.2636,27.64,34,14,4.7,CN,1722554249
232,porto novo,6.4965,2.6036,25.9,89,74,3.49,BJ,1722554250
233,trondheim,63.4305,10.3951,11.11,86,68,0.45,NO,1722554251
234,vorgashor,67.5833,63.95,14.38,89,43,4.15,RU,1722554114
235,date,42.4681,140.8681,23.31,89,39,2.56,JP,1722554253
236,sierra grande,-41.606,-65.3557,13.71,47,100,4.81,AR,1722554255
237,aldama,22.9167,-98.0667,34.16,68,23,4.35,MX,1722554256
238,zanesville,39.9404,-82.0132,32.33,65,20,3.09,US,1722554258
239,la passe,45.5549,-0.8967,20.13,83,2,3.83,FR,1722554259
240,ma'rib,15.4591,45.3253,31.79,28,99,6.37,YE,1722554260
241,enewetak,11.3474,162.3373,28.69,75,62,4.23,MH,1722554262
242,colac,-38.3333,143.5833,8.8,73,60,2.43,AU,1722554263
243,tete,-16.1564,33.5867,19.39,62,5,3.21,MZ,1722554264
244,isla vista,34.4133,-119.861,34.2,30,6,2.79,US,1722554265
245,dwarka,22.2394,68.9678,27.68,86,100,11.27,IN,1722554266
246,villa gesell,-37.2639,-56.973,15.59,90,95,6.53,AR,1722554267
247,bamboo flat,11.7,92.7167,27.05,89,75,1.03,IN,1722554269
248,amga,60.8953,131.9608,13.65,51,44,2.36,RU,1722554270
249,copiapo,-27.3667,-70.3333,13.57,68,98,1.57,CL,1722554271
250,port blair,11.6667,92.75,27.02,89,75,1.03,IN,1722554148
251,kapuskasing,49.4169,-82.4331,30.05,70,75,1.03,CA,1722554180
252,pisco,-13.7,-76.2167,17.03,82,40,4.12,PE,1722554274
253,brak,27.5496,14.2714,29.26,23,0,3.79,LY,1722554276
254,ubinskoye,55.3068,79.6802,17.46,84,95,2.77,RU,1722554277
255,lerwick,60.1545,-1.1494,14.0,87,81,2.65,GB,1722554278
256,ajdabiya,30.7554,20.2263,25.57,62,0,4.22,LY,1722554279
257,monrovia,6.3005,-10.7969,24.37,90,100,5.95,LR,1722554280
258,hadibu,12.65,54.0333,25.41,83,99,9.94,YE,1722554172
259,jiuquan,39.7432,98.5174,20.77,58,96,2.08,CN,1722554283
260,jinchang,38.4953,102.1739,20.18,67,100,1.66,CN,1722554284
261,olyokminsk,60.3736,120.4264,14.54,48,42,1.21,RU,1722554285
262,ta`u,-14.2336,-169.5144,25.68,68,11,8.46,AS,1722554245
263,rio grande,-32.035,-52.0986,18.06,79,72,7.07,BR,1722554289
264,tamanrasset,22.785,5.5228,29.95,20,40,2.06,DZ,1722554236
265,tabou,4.423,-7.3528,23.73,87,99,4.92,CI,1722554291
266,weno,7.4515,151.8468,28.97,84,100,3.6,FM,1722554292
267,piti village,13.4626,144.6933,27.39,90,40,2.06,GU,1722554295
268,abqaiq,25.9371,49.6776,34.91,15,59,4.23,SA,1722554296
269,thief river falls,48.1191,-96.1812,31.53,54,0,3.6,US,1722554297
270,lamu,-2.2717,40.902,24.27,79,7,7.36,KE,1722554298
271,daru,-9.0763,143.2092,24.9,89,100,8.4,PG,1722554299
272,jiagedaqi,50.4167,124.1167,16.63,42,5,1.84,CN,1722554300
273,coahuayana de hidalgo,18.7,-103.6583,29.96,69,91,1.21,MX,1722554229
274,vorkuta,67.5,64.0,14.41,90,45,4.12,RU,1722554303
275,kudahuvadhoo,2.6708,72.8944,28.07,73,100,1.22,MV,1722554305
276,al kharijah,25.4514,30.5464,33.09,19,1,3.78,EG,1722554306
277,palmer,42.1584,-72.3287,30.37,73,43,1.21,US,1722554308
278,bangassou,4.7413,22.8184,23.18,81,100,1.02,CF,1722554309
279,la'ie,21.6477,-157.9253,29.98,66,52,2.68,US,1722554310
280,aldinga beach,-35.2793,138.4604,14.51,56,100,8.29,AU,1722554311
281,alice springs,-23.7,133.8833,8.75,46,1,0.0,AU,1722554134
282,kibondo,-3.5864,30.7203,16.77,40,31,0.9,TZ,1722554315
283,punta arenas,-53.15,-70.9167,5.06,93,100,3.6,CL,1722554310
284,bokhan,53.153,103.7714,15.69,93,98,1.39,RU,1722554317
285,ridder,50.355,83.5133,15.18,70,0,2.54,KZ,1722554318
286,tepeji del rio de ocampo,19.9053,-99.3439,20.73,61,78,6.44,MX,1722554319
287,broome,42.2506,-75.833,29.38,61,6,0.45,US,1722554320
288,cabedelo,-6.9811,-34.8339,24.37,77,7,7.44,BR,1722554322
289,ajuchitlan del progreso,18.1519,-100.4835,29.1,74,100,0.53,MX,1722554323
290,kuznetsk,53.1167,46.6004,12.67,78,41,2.88,RU,1722554325
291,pirane,-25.7324,-59.1088,31.79,25,2,6.58,AR,1722554326
292,vila franca do campo,37.7167,-25.4333,23.23,83,6,1.26,PT,1722554327
293,kailua-kona,19.6406,-155.9956,28.98,73,100,4.63,US,1722554329
294,as-suwayda,32.709,36.5695,21.43,50,0,1.62,SY,1722554330
295,sisimiut,66.9395,-53.6735,11.53,59,11,3.02,GL,1722554331
296,ivdel',60.6911,60.4206,13.67,99,98,1.8,RU,1722554332
297,marsa alam,25.0757,34.8918,31.99,53,0,2.19,EG,1722554333
298,miryang,35.4933,128.7489,29.95,82,1,1.13,KR,1722554334
299,sterling,39.0062,-77.4286,34.48,53,40,3.09,US,1722554337
300,padang,-0.9492,100.3543,25.03,87,95,1.66,ID,1722554316
301,chandler,33.3062,-111.8412,41.59,27,0,5.66,US,1722553997
302,kuna,43.4918,-116.4201,39.48,21,0,2.06,US,1722554278
303,nemuro,43.3236,145.575,16.12,91,98,4.54,JP,1722554176
304,bougouni,11.417,-7.479,23.91,92,100,2.29,ML,1722554343
305,auki,-8.7676,160.7034,28.4,73,41,1.17,SB,1722554207
306,kingston,17.997,-76.7936,26.76,91,94,1.6,JM,1722553853
307,kyzyl-suu,42.3414,78.0056,18.37,39,57,1.97,KG,1722554346
308,rawson,-43.3002,-65.1023,14.18,51,100,8.2,AR,1722554143
309,bengkulu,-3.8004,102.2655,23.46,93,48,2.17,ID,1722554246
310,badger,64.8,-147.5333,14.43,71,100,5.14,US,1722554280
311,hobyo,5.3505,48.5268,24.68,83,69,11.37,SO,1722554351
312,olenegorsk,68.15,33.3,13.09,89,99,2.58,RU,1722554352
313,sakaiminato,35.55,133.2333,29.99,74,20,2.06,JP,1722554330
314,lata,40.1629,-8.3327,14.73,98,45,1.45,PT,1722554355
315,dakhla,23.6848,-15.958,20.04,92,3,11.29,EH,1722554197
316,ulmeni,47.4667,23.3,22.3,39,100,1.55,RO,1722554358
317,sao joao da barra,-21.6403,-41.0511,19.05,65,2,5.6,BR,1722554359
318,arar,30.9753,41.0381,33.01,14,0,8.75,SA,1722554360
319,emerald,-23.5333,148.1667,15.19,39,0,3.37,AU,1722554362
320,harij,23.7,71.9,27.77,83,100,7.76,IN,1722554363
321,marrakesh,31.6315,-8.0083,32.42,48,40,2.06,MA,1722554364
322,akjoujt,19.6969,-14.4164,29.71,53,10,8.42,MR,1722554365
323,mana,5.6592,-53.7767,26.42,82,0,2.58,GF,1722554366
324,hakha,22.65,93.6167,18.02,99,100,0.6,MM,1722554367
325,faya-largeau,17.9257,19.1043,29.61,59,99,5.12,TD,1722554369
326,portland,45.5234,-122.6762,38.11,40,20,3.6,US,1722554109
327,east london,-33.0153,27.9116,15.2,64,92,1.72,ZA,1722554264
328,mizdah,31.4451,12.9801,23.76,56,0,2.6,LY,1722554373
329,isla mujeres,21.2311,-86.731,31.03,74,7,4.28,MX,1722554374
330,sadjoavato,-12.6334,49.349,18.59,83,10,2.78,MG,1722554376
331,dodola,6.9833,39.1833,11.22,95,89,1.2,ET,1722554377
332,polyarnyy,69.1989,33.4478,9.78,94,100,3.56,RU,1722554155
333,hede,33.7681,120.2517,26.27,94,96,1.36,CN,1722554379
334,tura,25.5198,90.2201,23.48,99,100,1.5,IN,1722554380
335,cannonvale,-20.2833,148.7,18.66,62,3,7.14,AU,1722554381
336,pokrovsk,48.282,37.1758,17.26,40,2,3.82,UA,1722554383
337,bathsheba,13.2167,-59.5167,29.34,79,20,3.6,BB,1722554384
338,khor,47.8861,134.9464,17.23,91,86,6.66,RU,1722554386
339,puerto leguizamo,-0.1934,-74.7819,22.86,96,97,0.84,CO,1722554387
340,castillos,-34.1667,-53.8333,17.47,83,72,3.86,UY,1722554389
341,pulaski,34.7668,-92.3001,36.17,54,20,5.14,US,1722554390
342,corbelia,-24.7989,-53.3067,22.64,57,0,3.3,BR,1722554391
343,frankenmuth,43.3317,-83.738,29.43,77,0,3.09,US,1722554098
344,tarija,-21.5355,-64.7296,23.95,20,0,2.06,BO,1722554393
345,marquette,46.5333,-87.6335,24.35,77,100,0.89,US,1722554394
346,tucurui,-3.7661,-49.6725,26.81,48,0,1.29,BR,1722554396
347,iola,37.9245,-95.4,36.03,49,0,3.09,US,1722554397
348,pascagoula,30.3658,-88.5561,34.4,61,0,2.06,US,1722554266
349,champerico,14.3,-91.9167,25.3,73,100,2.05,GT,1722554400
350,saint-francois,46.4154,3.9054,20.93,95,75,1.03,FR,1722554402
351,san-pedro,4.7485,-6.6363,23.25,92,100,4.04,CI,1722554403
352,sajir,25.1825,44.5996,32.04,18,13,3.46,SA,1722554404
353,racine,42.7495,-88.0751,28.92,77,40,2.06,US,1722554361
354,leer,53.2316,7.461,16.64,89,100,2.25,DE,1722554408
355,wenchang,30.904,118.4887,29.42,75,2,1.9,CN,1722554409
356,acarau,-2.8856,-40.12,25.46,76,27,8.49,BR,1722554372
357,naze,28.3667,129.4833,28.51,77,14,2.11,JP,1722554412
358,bhimunipatnam,17.8833,83.4333,27.59,75,100,4.04,IN,1722554413
359,cill airne,52.05,-9.5167,14.63,98,71,2.43,IE,1722554414
360,flying fish cove,-10.4217,105.6791,25.61,74,75,7.5,CX,1722554415
361,mugango,-1.6833,33.7,22.01,69,87,0.75,TZ,1722554416
362,fort bragg,35.139,-79.006,35.11,59,0,3.09,US,1722554146
363,crane,31.3974,-102.3501,37.57,21,0,7.95,US,1722554379
364,port saint john's,-31.6229,29.5448,16.07,72,90,2.3,ZA,1722554421
365,fortuna,40.5982,-124.1573,19.51,79,0,6.69,US,1722554422
366,dikhil,11.5,42.1667,29.18,55,92,3.29,DJ,1722554424
367,madinat ash shamal,26.1293,51.2009,34.11,62,77,5.47,QA,1722554425
368,hermanus,-34.4187,19.2345,8.78,80,71,1.74,ZA,1722554117
369,gryazovets,58.88,40.2525,12.63,95,97,2.15,RU,1722554427
370,cooper's town,26.8667,-77.5167,29.23,76,32,5.88,BS,1722554428
371,buka,40.8108,69.1986,25.83,31,16,1.75,UZ,1722554429
372,sinjai,-5.1241,120.253,24.89,86,61,2.58,ID,1722554431
373,ketchikan,55.3422,-131.6461,19.63,55,40,1.91,US,1722554433
374,mwinilunga,-11.7358,24.4293,14.08,30,1,1.73,ZM,1722554434
375,teluknaga,-6.0989,106.6381,25.57,83,20,3.09,ID,1722554435
376,hami,42.8,93.45,27.19,26,78,4.48,CN,1722554436
377,ceerigaabo,10.6162,47.368,20.17,54,29,12.06,SO,1722554438
378,berezovyy,51.6667,135.7,18.5,57,53,2.54,RU,1722554439
379,trumann,35.6737,-90.5073,34.06,60,87,3.25,US,1722554440
380,howard springs,-12.497,131.047,23.95,99,70,3.75,AU,1722554441
381,lajas,18.05,-67.0593,28.17,60,84,2.68,PR,1722554442
382,banfora,10.6333,-4.7667,24.01,92,99,1.29,BF,1722554443
383,saudarkrokur,65.7461,-19.6394,9.36,93,71,2.49,IS,1722554445
384,namibe,-15.1961,12.1522,16.5,89,27,1.68,AO,1722554419
385,campbell river,50.0163,-125.2446,29.22,44,40,1.54,CA,1722554421
386,vine grove,37.8101,-85.9814,23.04,94,0,2.57,US,1722554448
387,aldan,58.6031,125.3894,11.84,61,61,0.82,RU,1722554449
388,chateau-thierry,49.05,3.4,19.64,94,80,1.81,FR,1722554450
389,tulagi,-9.0996,160.1476,27.65,80,54,10.0,SB,1722554452
390,beberibe,-4.1797,-38.1306,26.19,71,4,6.75,BR,1722554453
391,mudgee,-32.5943,149.5871,8.12,69,1,2.14,AU,1722554454
392,daryapur,20.9333,77.3333,24.42,89,100,5.9,IN,1722554455
393,yangambi,0.8102,24.4336,23.07,80,88,1.47,CD,1722554456
394,heunghae,36.1125,129.3522,29.17,78,23,2.4,KR,1722554278
395,velizh,55.6056,31.1967,14.78,84,100,2.97,RU,1722554459
396,lagunillas,10.1301,-71.2595,28.61,72,100,1.23,VE,1722554460
397,gimbi,9.1667,35.8333,12.54,98,100,0.29,ET,1722554461
398,znamenskoye,57.1281,73.8282,16.0,93,85,2.5,RU,1722554462
399,monster,52.0258,4.175,19.45,87,20,1.54,NL,1722554464
400,uturoa,-16.7333,-151.4333,23.74,67,20,6.84,PF,1722554465
401,abepura,-2.6333,140.5833,27.45,83,20,3.09,ID,1722554466
402,san alejo,13.4314,-87.9631,29.48,84,40,1.03,SV,1722554467
403,taltal,-25.4,-70.4833,14.02,82,78,1.13,CL,1722554468
404,sittwe,20.15,92.9,26.41,90,100,5.33,MM,1722554471
405,cape town,-33.9258,18.4232,12.17,72,0,3.6,ZA,1722554432
406,bamyan,34.75,67.25,9.92,59,0,2.69,AF,1722554473
407,lompoc,34.6391,-120.4579,28.1,65,0,7.2,US,1722554474
408,timbuktu,16.7735,-3.0074,30.86,59,100,6.16,ML,1722554476
409,port sudan,19.6175,37.2164,34.48,45,100,8.78,SD,1722554477
410,greenland,43.0362,-70.8328,31.49,70,42,2.88,US,1722554478
411,figuig (centre),32.1089,-1.2286,31.76,15,14,1.51,MA,1722554479
412,oltinko'l,40.8011,72.1634,30.89,24,91,2.34,UZ,1722554480
413,shimanovsk,52.0,127.7,18.5,56,1,3.34,RU,1722554482
414,dem'yanovo,60.3511,47.0842,12.61,97,77,1.71,RU,1722554483
415,kimberley,-28.7323,24.7623,13.83,72,42,4.63,ZA,1722554484
416,estevan,49.1334,-102.9842,34.19,24,0,6.69,CA,1722554485
417,north bend,43.4065,-124.2243,24.43,79,41,3.03,US,1722554488
418,mitha tiwana,32.2486,72.1108,30.39,66,97,1.39,PK,1722554489
419,salalah,17.0151,54.0924,24.05,100,100,2.57,OM,1722554490
420,rizhao,35.4275,119.4553,26.15,92,97,1.67,CN,1722554491
421,prado,-17.3411,-39.2208,21.67,89,46,5.39,BR,1722554492
422,nouadhibou,20.931,-17.0347,21.99,83,98,8.75,MR,1722554493
423,sinop,41.7711,34.8709,15.44,57,0,3.35,TR,1722554495
424,al jumum,21.6169,39.6981,31.46,58,38,2.62,SA,1722554496
425,urzhum,57.1141,49.9996,14.38,96,100,2.61,RU,1722554497
426,kaitong,44.8135,123.15,21.84,86,65,5.01,CN,1722554498
427,kurduvadi,18.0833,75.4333,23.6,88,100,6.96,IN,1722554499
428,chongwe,-15.3292,28.682,15.04,66,2,3.95,ZM,1722554500
429,mount gambier,-37.8333,140.7667,8.6,56,98,5.64,AU,1722554502
430,baybay,10.6833,124.8333,26.14,88,28,1.29,PH,1722554503
431,visby,57.6409,18.296,17.12,77,10,3.6,SE,1722554496
432,kruisfontein,-34.0033,24.7314,8.27,89,16,2.82,ZA,1722554505
433,bintulu,3.1667,113.0333,24.23,94,20,1.03,MY,1722554506
434,yuzhno-sakhalinsk,46.9581,142.7337,18.79,94,100,5.0,RU,1722554507
435,rokytne,51.2796,27.214,15.54,75,24,0.53,UA,1722554509
436,dowlatabad,32.7998,51.6955,26.82,28,0,2.06,IR,1722554510
437,pokachi,61.7198,75.3683,16.18,93,83,4.43,RU,1722554511
438,las lomitas,-24.7096,-60.593,33.16,21,0,7.34,AR,1722554512
439,canavieiras,-15.675,-38.9472,21.74,85,3,1.99,BR,1722554372
440,bhinmal,25.0,72.25,27.18,86,100,6.89,IN,1722554514
441,kuqa,41.7278,82.9364,27.1,39,0,4.64,CN,1722554516
442,luwuk,-0.9516,122.7875,22.91,87,91,2.41,ID,1722554517
443,coronel oviedo,-25.4167,-56.45,26.77,41,3,5.24,PY,1722554363
444,great falls,47.5002,-111.3008,35.21,18,0,1.54,US,1722554519
445,olovyannaya,50.95,115.5667,17.79,33,54,1.63,RU,1722554520
446,gao,16.6362,1.637,32.03,47,44,3.55,ML,1722554522
447,san antonio de pale,-1.4014,5.6325,22.62,79,100,5.11,GQ,1722554166
448,minot air force base,48.4209,-101.3391,35.1,31,20,5.66,US,1722554525
449,granada,37.25,-3.25,26.28,22,0,2.57,ES,1722554519
450,sarangpur,23.5667,76.4667,24.45,92,100,6.25,IN,1722554528
451,parabel',58.6978,81.4825,16.28,96,64,2.28,RU,1722554530
452,asau,46.4333,26.4,21.51,55,100,2.76,RO,1722554531
453,strezhevoy,60.7333,77.5889,16.39,95,66,2.66,RU,1722554532
454,guerrero negro,27.9769,-114.0611,26.6,49,6,6.07,MX,1722554397
455,tera,14.0078,0.7531,25.28,78,100,3.88,NE,1722554534
456,at taj,24.2049,23.2857,29.47,23,1,5.08,LY,1722554537
457,myitkyina,25.3833,97.4,23.95,100,96,0.14,MM,1722554538
458,villa la angostura,-40.7617,-71.6463,3.71,99,100,1.78,AR,1722554539
459,udgir,18.3833,77.1167,22.56,89,100,7.26,IN,1722554541
460,kupang,-10.1667,123.5833,27.32,74,20,4.63,ID,1722554543
461,lodwar,3.1191,35.5973,28.48,45,83,2.74,KE,1722554544
462,sathupalli,17.2497,80.869,24.23,94,100,3.74,IN,1722554546
463,jose maria morelos,30.8066,-112.684,37.87,34,25,7.13,MX,1722554547
464,nuuk,64.1835,-51.7216,11.34,58,0,4.63,GL,1722554548
465,kalabo,-14.97,22.6814,15.22,26,2,3.16,ZM,1722554549
466,mullsjo,63.7,19.7,14.94,93,100,4.61,SE,1722554399
467,itoman,26.1247,127.6694,31.21,81,20,3.09,JP,1722554123
468,oak ridge,36.0104,-84.2696,32.85,72,0,0.45,US,1722554553
469,chu,43.5983,73.7614,26.63,25,71,1.09,KZ,1722554554
470,gandorhun,7.5,-11.8333,23.25,97,100,1.67,SL,1722554555
471,novaya igirma,57.1334,103.9112,13.57,77,22,0.67,RU,1722554556
472,akrehamn,59.2667,5.1833,12.45,82,8,1.03,NO,1722554557
473,usogorsk,63.4106,48.6872,13.31,96,94,2.09,RU,1722554558
474,vilyuysk,63.7553,121.6247,12.88,56,9,0.79,RU,1722554560
475,jind,29.3167,76.3167,27.7,85,95,2.52,IN,1722554561
476,qaqortoq,60.7167,-46.0333,6.36,83,28,2.8,GL,1722554120
477,seabra,-12.4186,-41.7703,17.69,51,0,2.27,BR,1722554563
478,tranas,58.0372,14.9782,12.29,66,18,1.06,SE,1722554564
479,cuyo,10.8525,121.0086,28.43,73,100,1.21,PH,1722554566
480,tangalle,6.024,80.7911,25.06,90,99,3.89,LK,1722554567
481,leninskoye,41.7589,69.3864,27.81,26,24,2.19,KZ,1722554568
482,al kharj,24.155,47.3346,33.32,13,9,4.2,SA,1722554569
483,puerto colombia,10.9878,-74.9547,25.05,81,99,5.95,CO,1722554570
484,noosa heads,-26.3833,153.15,16.85,61,1,4.6,AU,1722554571
485,kralendijk,12.15,-68.2667,28.99,79,0,8.75,BQ,1722554573
486,jiwani,25.05,61.7417,27.93,84,100,4.17,PK,1722554438
487,belchatow,51.3688,19.3567,18.23,54,60,3.21,PL,1722554575
488,tutoia,-2.7619,-42.2744,26.02,76,12,5.32,BR,1722554576
489,tual,-5.6667,132.75,25.3,86,85,9.83,ID,1722554107
490,dryden,49.7833,-92.7503,29.16,37,0,4.63,CA,1722554578
491,suleja,9.1758,7.1808,24.55,97,97,1.28,NG,1722554580
492,tweed heads,-28.1817,153.547,17.22,57,0,5.66,AU,1722554581
493,okha,53.5739,142.9478,14.44,87,98,4.48,RU,1722554582
494,magadan,59.5667,150.8,9.02,92,100,5.94,RU,1722554583
495,tanushimarumachi-toyoki,33.35,130.6833,31.73,74,0,1.31,JP,1722554584
496,solhan,38.9634,41.0293,19.51,38,0,1.26,TR,1722554585
497,novospasskoye,53.1468,47.7514,14.38,73,39,2.91,RU,1722554587
498,plastun,44.7561,136.2939,25.91,86,100,0.58,RU,1722554588
499,westport,41.1415,-73.3579,30.23,69,0,5.14,US,1722554450
500,chegdomyn,51.1167,133.0167,18.67,84,100,0.51,RU,1722554590
501,serdar,38.9764,56.2757,28.16,60,2,5.13,TM,1722554591
502,holualoa,19.6228,-155.9522,26.91,73,100,4.63,US,1722554592
503,ola,59.5833,151.2833,9.47,90,100,6.37,RU,1722554463
504,greenville,35.6127,-77.3663,33.97,64,0,1.54,US,1722554022
505,adam,22.3756,57.5233,32.54,44,100,1.81,OM,1722554596
506,kristiansund,63.1115,7.732,13.03,86,28,1.03,NO,1722554597
507,sosnovo-ozerskoye,52.5249,111.5418,15.78,47,97,1.43,RU,1722554598
508,gargalianoi,37.0667,21.6333,25.75,65,0,3.54,GR,1722554599
509,oeiras,-7.0253,-42.1311,27.34,43,0,4.32,BR,1722554601
510,kongsvinger,60.1905,11.9977,13.37,82,26,1.37,NO,1722554432
511,revda,56.801,59.9303,12.13,97,48,1.59,RU,1722554115
512,fort mcmurray,56.7268,-111.381,25.77,33,75,4.12,CA,1722554604
513,ixtapa,20.7,-105.2,31.57,55,100,4.12,MX,1722554605
514,dadiya,9.6167,11.4333,22.76,93,100,1.64,NG,1722554607
515,beloyarskiy,63.7119,66.6722,13.43,88,65,2.79,RU,1722554608
516,kalmunai,7.4167,81.8167,27.24,75,100,2.54,LK,1722554609
517,mbandjok,4.45,11.9,20.09,99,85,1.98,CM,1722554610
518,aykhal,66.0,111.5,12.07,48,5,2.28,RU,1722554611
519,mir bachah kot,34.75,69.119,21.58,35,0,1.78,AF,1722554614
520,strelka,58.0728,93.0344,14.65,96,72,1.2,RU,1722554615
521,kota kinabalu,5.9749,116.0724,26.99,83,20,2.06,MY,1722554431
522,kimbe,-5.5502,150.1429,29.16,67,45,2.14,PG,1722554617
523,nema,57.5067,50.5011,13.71,93,94,1.18,RU,1722554546
524,tsiombe,-25.3,45.4833,18.72,66,64,0.39,MG,1722554620
525,i-n-salah,27.1935,2.4607,34.76,13,2,7.1,DZ,1722554621
526,carlsbad,33.1581,-117.3506,31.08,71,0,4.12,US,1722554622
527,slaton,33.4373,-101.6435,38.34,21,2,5.05,US,1722554623
528,alta,69.9689,23.2717,15.59,82,75,25.03,NO,1722554624
529,bandarbeyla,9.4942,50.8122,26.53,67,84,15.01,SO,1722554626
530,wau,7.7029,27.9953,21.04,85,83,0.85,SS,1722554627
531,aliabad,41.4822,46.6353,21.77,80,100,1.92,AZ,1722554628
532,port pirie,-33.1833,138.0167,12.7,45,100,5.99,AU,1722554629
533,kavaratti,10.5669,72.642,27.91,80,100,7.36,IN,1722554479
534,lycksele,64.5954,18.6735,12.93,82,100,4.12,SE,1722554631
535,hinthada,17.6333,95.4667,24.37,95,100,2.88,MM,1722554633
536,sines,37.9562,-8.8698,17.94,76,0,2.24,PT,1722554634
537,brokopondo,4.75,-55.1667,26.34,82,61,6.34,SR,1722554636
538,pontianak,-0.0333,109.3333,24.99,100,40,1.54,ID,1722554637
539,al khawr,25.7667,51.3167,34.18,43,73,4.81,QA,1722554639
540,sao felix do xingu,-6.6447,-51.995,29.03,32,42,0.61,BR,1722554640
541,happy valley-goose bay,53.3168,-60.3315,19.17,88,75,4.12,CA,1722554641
542,hotan,37.0997,79.9269,27.84,28,87,3.81,CN,1722554642
543,beira,-19.8436,34.8389,21.05,94,20,3.09,MZ,1722554453
544,de queen,34.0379,-94.3413,35.07,43,0,4.12,US,1722554371
545,kolonia town,6.964,158.206,32.0,66,75,2.57,FM,1722554646
546,suoyarvi,62.0833,32.35,12.68,95,60,2.07,RU,1722554647
547,chakulia,22.4833,86.7167,25.68,90,100,3.97,IN,1722554648
548,beruniy,41.6911,60.7525,21.98,60,0,3.09,UZ,1722554649
549,kenai,60.5544,-151.2583,19.05,70,0,8.23,US,1722554650
550,boca suno,-0.7167,-77.1333,24.79,81,80,0.79,EC,1722554651
551,pielavesi,63.2333,26.75,13.29,96,100,1.51,FI,1722554653
552,veshenskaya,49.6303,41.7334,17.74,43,49,3.22,RU,1722554654
553,ciudad lazaro cardenas,17.9583,-102.2,29.62,69,99,4.06,MX,1722554655
554,mariehamn,60.0973,19.9348,16.57,94,0,2.06,AX,1722554656
555,arteche,12.2645,125.4048,25.99,88,18,1.41,PH,1722554657
556,tadine,-21.55,167.8833,18.27,76,97,5.5,NC,1722554660
557,tammela,60.8104,23.7682,14.71,96,95,2.35,FI,1722554661
558,manta,-0.95,-80.7333,24.88,78,20,5.14,EC,1722554406
559,stettler,52.3168,-112.7186,29.3,27,0,5.05,CA,1722554663
560,bloemfontein,-29.1211,26.214,12.71,67,21,6.17,ZA,1722554664
561,ciudad satelite,19.5167,-99.25,22.57,43,96,4.82,MX,1722554666
562,pangoa,-12.1167,-73.0,22.57,79,44,1.29,PE,1722554667
563,powell river,49.8496,-124.5361,27.15,53,20,3.6,CA,1722554668
564,mangrol,21.1167,70.1167,27.53,85,100,10.4,IN,1722554669
565,yorkton,51.2167,-102.4677,26.91,34,0,6.17,CA,1722554670
566,tarnogskiy gorodok,60.4997,43.5761,12.98,98,84,1.81,RU,1722554671
567,zouerate,22.7187,-12.4521,34.93,6,0,4.45,MR,1722554673
